City,Lat,Lng,Max Temp,Humidity,Cloudiness,Wind Speed,Country,Date
castro,-24.79,-50.01,59.95,77,0,3.09,BR,2020-08-29 21:36
mataura,-46.19,168.86,58.84,54,85,12.71,NZ,2020-08-29 21:36
vaini,-21.2,-175.2,80.6,78,40,10.29,TO,2020-08-29 21:36
hobart,-42.88,147.33,69.8,32,40,31.09,AU,2020-08-29 21:36
busselton,-33.65,115.33,57.0,67,59,5.99,AU,2020-08-29 21:36
gat,31.61,34.76,81.0,83,0,0.25,IL,2020-08-29 21:36
kaitangata,-46.28,169.85,62.01,48,52,17.0,NZ,2020-08-29 21:36
rikitea,-23.12,-134.97,70.12,76,10,7.45,PF,2020-08-29 21:36
mount gambier,-37.83,140.77,53.6,87,75,19.46,AU,2020-08-29 21:36
albany,42.6,-73.97,68.0,93,18,1.01,US,2020-08-29 21:36
hermanus,-34.42,19.23,39.0,93,11,1.01,ZA,2020-08-29 21:36
la palma,33.85,-118.05,75.2,57,1,4.7,US,2020-08-29 21:34
tiksi,71.69,128.87,46.42,74,9,8.88,RU,2020-08-29 21:36
souillac,-20.52,57.52,69.8,73,40,14.99,MU,2020-08-29 21:36
pacific grove,36.62,-121.92,60.01,93,75,3.4,US,2020-08-29 21:36
bredasdorp,-34.53,20.04,41.0,86,9,9.17,ZA,2020-08-29 21:36
dikson,73.51,80.55,41.61,95,100,20.67,RU,2020-08-29 21:36
georgetown,5.41,100.34,86.0,79,20,3.87,MY,2020-08-29 21:36
kapaa,22.08,-159.32,82.4,74,1,14.99,US,2020-08-29 21:36
lorengau,-2.02,147.27,85.64,70,99,11.81,PG,2020-08-29 21:36
leh,34.17,77.58,57.36,36,1,6.22,IN,2020-08-29 21:33
marzuq,14.4,46.47,80.17,51,0,4.07,YE,2020-08-29 21:36
arraial do cabo,-22.97,-42.03,71.87,87,0,26.49,BR,2020-08-29 21:36
prieska,-29.66,22.75,31.14,94,0,3.83,ZA,2020-08-29 21:36
khani,41.96,42.96,60.8,93,0,2.24,GE,2020-08-29 21:36
huanren,41.26,125.37,83.75,56,77,2.17,CN,2020-08-29 21:36
road town,18.42,-64.62,84.0,88,3,5.99,VG,2020-08-29 21:34
tikhvin,59.65,33.53,51.01,93,100,4.03,RU,2020-08-29 21:36
ushuaia,-54.8,-68.3,32.0,91,90,20.8,AR,2020-08-29 21:34
jamestown,42.1,-79.24,62.6,77,75,8.05,US,2020-08-29 21:34
bambous virieux,-20.34,57.76,70.0,73,40,14.99,MU,2020-08-29 21:36
atuona,-9.8,-139.03,79.02,78,10,21.0,PF,2020-08-29 21:36
bluff,-46.6,168.33,54.12,75,67,29.39,NZ,2020-08-29 21:36
vao,-22.67,167.48,66.99,69,25,18.57,NC,2020-08-29 21:36
norman wells,65.28,-126.83,57.2,48,20,6.93,CA,2020-08-29 21:36
east london,-33.02,27.91,51.71,60,28,19.01,ZA,2020-08-29 21:36
tura,25.52,90.22,80.31,86,100,5.21,IN,2020-08-29 21:36
el jicaro,14.92,-89.9,75.69,72,98,1.21,GT,2020-08-29 21:36
villa maria,-32.41,-63.24,46.99,63,38,1.99,AR,2020-08-29 21:36
thompson,55.74,-97.86,53.6,81,75,4.7,CA,2020-08-29 21:36
mahebourg,-20.41,57.7,69.8,73,40,14.99,MU,2020-08-29 21:36
erzin,36.96,36.2,77.0,89,0,2.53,TR,2020-08-29 21:36
faya,18.39,42.45,68.0,45,20,6.82,SA,2020-08-29 21:36
jiaocheng,24.68,116.14,89.74,62,60,1.86,CN,2020-08-29 21:36
san patricio,19.22,-104.7,78.87,86,100,9.08,MX,2020-08-29 21:36
chicama,-7.84,-79.15,60.66,86,56,5.39,PE,2020-08-29 21:36
carnarvon,-24.87,113.63,75.2,29,0,12.75,AU,2020-08-29 21:36
kodiak,57.79,-152.41,53.6,93,90,20.8,US,2020-08-29 21:36
changde,29.05,111.68,88.0,56,0,4.0,CN,2020-08-29 21:36
south valley,35.01,-106.68,78.01,38,75,27.51,US,2020-08-29 21:36
kapit,2.02,112.93,87.33,66,77,1.99,MY,2020-08-29 21:36
avarua,-21.21,-159.78,77.0,69,34,18.34,CK,2020-08-29 21:36
port-gentil,-0.72,8.78,74.95,87,93,13.24,GA,2020-08-29 21:36
port alfred,-33.59,26.89,49.98,60,12,21.09,ZA,2020-08-29 21:36
yellowknife,62.46,-114.35,46.99,81,75,18.34,CA,2020-08-29 21:36
nazas,25.23,-104.13,81.23,42,100,4.05,MX,2020-08-29 21:36
sicamous,50.83,-118.99,64.4,45,75,5.82,CA,2020-08-29 21:36
fort nelson,58.81,-122.7,53.6,58,75,3.36,CA,2020-08-29 21:36
tagusao,9.19,117.81,86.76,66,100,6.02,PH,2020-08-29 21:36
katsuura,35.13,140.3,93.99,62,75,4.7,JP,2020-08-29 21:36
cape town,-33.93,18.42,39.2,93,75,2.24,ZA,2020-08-29 21:34
flin flon,54.77,-101.86,58.37,79,100,17.16,CA,2020-08-29 21:36
saint-philippe,-21.36,55.77,64.4,77,62,5.82,RE,2020-08-29 21:36
ouadda,8.08,22.4,66.97,94,98,2.1,CF,2020-08-29 21:36
tasiilaq,65.61,-37.64,41.0,75,100,2.24,GL,2020-08-29 21:36
nikolskoye,59.7,30.79,53.6,87,75,11.18,RU,2020-08-29 21:36
mar del plata,-38.0,-57.56,44.01,64,75,4.7,AR,2020-08-29 21:36
ladario,-19.0,-57.6,77.99,20,0,1.23,BR,2020-08-29 21:36
tougan,13.07,-3.07,74.57,90,100,11.27,BF,2020-08-29 21:36
saldanha,-33.01,17.94,35.6,64,15,1.12,ZA,2020-08-29 21:36
erenhot,43.65,111.98,61.75,83,100,16.35,CN,2020-08-29 21:36
mendota,36.75,-120.38,91.4,29,1,8.05,US,2020-08-29 21:36
abong mbang,3.98,13.18,66.65,98,100,2.82,CM,2020-08-29 21:36
phan thiet,10.93,108.1,88.27,64,4,9.46,VN,2020-08-29 21:34
guatire,10.48,-66.54,71.82,85,59,1.7,VE,2020-08-29 21:36
khatanga,71.97,102.5,57.22,57,90,11.07,RU,2020-08-29 21:36
punta arenas,-53.15,-70.92,37.4,80,71,17.22,CL,2020-08-29 21:36
suntar,62.14,117.63,65.44,63,100,4.59,RU,2020-08-29 21:36
talcahuano,-36.72,-73.12,44.6,70,0,3.36,CL,2020-08-29 21:36
matagami,49.75,-77.63,53.6,93,90,4.27,CA,2020-08-29 21:36
prainha,-1.8,-53.48,78.26,71,39,5.19,BR,2020-08-29 21:36
ternate,0.8,127.4,83.01,72,96,3.6,ID,2020-08-29 21:36
iqaluit,63.75,-68.51,51.8,66,75,11.41,CA,2020-08-29 21:36
provideniya,64.38,-173.3,53.4,62,63,9.48,RU,2020-08-29 21:36
lomme,50.64,2.99,59.0,93,20,6.93,FR,2020-08-29 21:36
campbell river,50.02,-125.24,64.4,42,20,19.46,CA,2020-08-29 21:36
yenagoa,4.92,6.26,73.81,92,98,1.74,NG,2020-08-29 21:36
san juan de los morros,9.91,-67.35,68.7,93,2,3.71,VE,2020-08-29 21:36
kargasok,59.06,80.86,60.01,86,43,5.66,RU,2020-08-29 21:36
klaksvik,62.23,-6.59,41.0,93,58,1.12,FO,2020-08-29 21:36
nanortalik,60.14,-45.24,48.69,75,88,6.51,GL,2020-08-29 21:37
beidao,34.57,105.89,59.99,82,100,7.25,CN,2020-08-29 21:37
hasaki,35.73,140.83,97.0,63,40,8.05,JP,2020-08-29 21:37
kavieng,-2.57,150.8,85.86,67,30,12.68,PG,2020-08-29 21:37
dharchula,29.85,80.53,73.94,71,37,3.58,IN,2020-08-29 21:37
owando,-0.48,15.9,70.41,95,100,2.91,CG,2020-08-29 21:37
kozhva,65.11,57.05,50.2,87,100,2.57,RU,2020-08-29 21:37
havre-saint-pierre,50.23,-63.6,48.2,87,90,4.7,CA,2020-08-29 21:37
tuktoyaktuk,69.45,-133.04,42.8,87,20,11.41,CA,2020-08-29 21:37
constitucion,-35.33,-72.42,44.67,64,0,11.14,CL,2020-08-29 21:37
cabo san lucas,22.89,-109.91,80.01,94,90,3.36,MX,2020-08-29 21:37
fuzhou,26.06,119.31,89.6,70,40,17.9,CN,2020-08-29 21:37
pevek,69.7,170.31,39.09,83,100,6.89,RU,2020-08-29 21:37
novobiryusinskiy,56.96,97.71,64.11,64,0,4.61,RU,2020-08-29 21:37
kholtoson,50.3,103.31,60.82,64,33,2.06,RU,2020-08-29 21:37
lebu,-37.62,-73.65,43.7,78,0,12.93,CL,2020-08-29 21:37
olafsvik,64.89,-23.71,52.12,89,100,14.47,IS,2020-08-29 21:37
tornio,65.85,24.15,42.8,93,60,6.93,FI,2020-08-29 21:37
bennettsville,34.62,-79.68,81.0,94,1,3.36,US,2020-08-29 21:37
inirida,3.87,-67.92,72.97,98,91,1.43,CO,2020-08-29 21:37
airai,-8.93,125.41,74.93,43,86,4.92,TL,2020-08-29 21:37
butaritari,3.07,172.79,84.0,69,38,11.5,KI,2020-08-29 21:37
tezu,27.92,96.17,74.95,86,100,2.68,IN,2020-08-29 21:37
boyuibe,-20.42,-63.28,74.37,40,0,8.68,BO,2020-08-29 21:37
edd,13.93,41.69,91.38,58,68,1.1,ER,2020-08-29 21:37
narsaq,60.92,-46.05,60.8,31,77,24.16,GL,2020-08-29 21:37
cherskiy,68.75,161.3,44.17,79,100,8.1,RU,2020-08-29 21:37
aitape,-3.14,142.35,86.16,58,22,6.51,PG,2020-08-29 21:37
severo-kurilsk,50.68,156.12,52.95,78,47,10.94,RU,2020-08-29 21:37
saskylakh,71.92,114.08,60.94,41,100,5.61,RU,2020-08-29 21:37
port macquarie,-31.43,152.92,73.0,52,0,3.0,AU,2020-08-29 21:33
pueblo nuevo,23.38,-105.38,63.01,100,92,0.58,MX,2020-08-29 21:37
qaanaaq,77.48,-69.36,30.81,81,0,4.41,GL,2020-08-29 21:37
hovd,48.01,91.64,56.52,49,54,2.68,MN,2020-08-29 21:37
nelson bay,-32.72,152.15,71.6,43,0,9.17,AU,2020-08-29 21:37
port elizabeth,-33.92,25.57,46.4,87,90,16.11,ZA,2020-08-29 21:37
menongue,-14.66,17.69,58.96,46,52,4.12,AO,2020-08-29 21:37
longyearbyen,78.22,15.64,41.0,88,40,21.92,SJ,2020-08-29 21:37
cravo norte,6.3,-70.2,77.25,85,90,4.32,CO,2020-08-29 21:37
hithadhoo,-0.6,73.08,82.67,73,33,9.89,MV,2020-08-29 21:37
new norfolk,-42.78,147.06,66.99,53,68,3.0,AU,2020-08-29 21:37
meulaboh,4.14,96.13,83.97,72,100,1.66,ID,2020-08-29 21:37
leiyang,26.4,112.86,89.62,49,0,4.5,CN,2020-08-29 21:37
gao,16.64,1.64,78.3,78,98,9.86,ML,2020-08-29 21:37
sabang,5.89,95.32,83.62,73,100,8.14,ID,2020-08-29 21:37
puerto ayora,-0.74,-90.35,65.39,85,97,11.1,EC,2020-08-29 21:37
champerico,14.3,-91.92,66.0,93,100,4.85,GT,2020-08-29 21:37
jijiga,9.35,42.8,63.54,76,100,15.05,ET,2020-08-29 21:37
manuk mangkaw,4.8,119.85,84.36,67,100,3.33,PH,2020-08-29 21:37
christchurch,-43.53,172.63,71.6,28,17,18.34,NZ,2020-08-29 21:35
lavrentiya,65.58,-171.0,50.76,66,0,10.83,RU,2020-08-29 21:37
gwembe,-16.5,27.61,63.91,32,0,4.07,ZM,2020-08-29 21:37
ahipara,-35.17,173.17,61.12,64,0,7.52,NZ,2020-08-29 21:37
pontal do parana,-25.65,-48.51,62.6,77,0,4.7,BR,2020-08-29 21:37
mildura,-34.2,142.15,73.99,25,58,12.75,AU,2020-08-29 21:34
rawson,-43.3,-65.1,44.92,57,0,18.43,AR,2020-08-29 21:37
maceio,-9.67,-35.74,71.6,94,20,2.24,BR,2020-08-29 21:37
shebunino,46.43,141.86,62.67,54,98,15.35,RU,2020-08-29 21:37
ancud,-41.87,-73.82,39.0,96,64,8.01,CL,2020-08-29 21:37
upington,-28.45,21.26,35.6,80,0,1.12,ZA,2020-08-29 21:37
bridlington,54.08,-0.19,53.6,76,100,6.93,GB,2020-08-29 21:37
new glasgow,45.58,-62.65,61.0,95,100,1.01,CA,2020-08-29 21:35
barrow,71.29,-156.79,37.4,74,90,17.22,US,2020-08-29 21:37
kharan,28.58,65.42,79.14,17,0,5.7,PK,2020-08-29 21:37
hilo,19.73,-155.09,82.4,58,75,10.29,US,2020-08-29 21:37
flinders,-34.58,150.86,73.0,51,0,7.0,AU,2020-08-29 21:37
nacala,-14.54,40.67,70.32,90,8,4.52,MZ,2020-08-29 21:37
kabinda,-6.13,24.48,70.43,86,94,5.91,CD,2020-08-29 21:37
pangoa,-12.12,-73.0,72.34,67,21,2.33,PE,2020-08-29 21:37
yar-sale,66.83,70.83,46.4,70,13,7.96,RU,2020-08-29 21:33
ust-omchug,61.15,149.63,49.59,48,4,5.7,RU,2020-08-29 21:37
suzaka,36.65,138.32,90.0,62,17,1.99,JP,2020-08-29 21:37
marystown,47.17,-55.15,55.99,100,100,8.37,CA,2020-08-29 21:37
yaan,7.38,8.57,71.06,97,100,4.74,NG,2020-08-29 21:37
kaeo,-35.1,173.78,63.09,56,0,5.64,NZ,2020-08-29 21:37
riyadh,24.69,46.72,80.6,21,92,5.82,SA,2020-08-29 21:37
hambantota,6.12,81.12,82.4,83,75,5.82,LK,2020-08-29 21:37
margate,51.38,1.39,61.0,89,100,8.99,GB,2020-08-29 21:33
beringovskiy,63.05,179.32,47.16,82,100,22.77,RU,2020-08-29 21:37
hervey bay,-25.3,152.85,75.99,46,75,18.34,AU,2020-08-29 21:37
tual,-5.67,132.75,79.25,84,96,21.14,ID,2020-08-29 21:37
plessisville,46.22,-71.76,57.0,97,100,4.0,CA,2020-08-29 21:37
liwale,-9.77,37.93,62.04,96,17,2.08,TZ,2020-08-29 21:37
leonidovo,49.28,142.87,61.88,55,92,6.55,RU,2020-08-29 21:37
gamba,-2.65,10.0,73.08,89,100,5.95,GA,2020-08-29 21:37
faanui,-16.48,-151.75,78.13,76,0,23.82,PF,2020-08-29 21:37
ambilobe,-13.2,49.05,61.77,85,90,3.13,MG,2020-08-29 21:37
minab,27.15,57.08,86.0,70,0,2.35,IR,2020-08-29 21:37
mitu,1.2,-70.17,70.77,98,100,3.36,CO,2020-08-29 21:33
murray bridge,-35.12,139.27,57.99,75,83,13.0,AU,2020-08-29 21:37
nouadhibou,20.93,-17.03,73.4,83,0,20.8,MR,2020-08-29 21:37
imatra,61.17,28.75,54.0,100,90,5.82,FI,2020-08-29 21:37
asti,44.9,8.21,66.99,94,98,1.01,IT,2020-08-29 21:37
atar,20.52,-13.05,88.3,25,10,2.77,MR,2020-08-29 21:37
ubinskoye,55.31,79.68,62.2,82,0,6.17,RU,2020-08-29 21:37
vostok,46.49,135.88,50.22,87,100,5.28,RU,2020-08-29 21:37
clyde river,70.47,-68.59,42.8,93,1,0.2,CA,2020-08-29 21:37
chokurdakh,70.63,147.92,43.48,77,97,4.18,RU,2020-08-29 21:37
bintulu,3.17,113.03,86.0,79,40,4.7,MY,2020-08-29 21:37
saint-augustin,51.23,-58.65,53.67,64,100,5.77,CA,2020-08-29 21:37
sitka,57.05,-135.33,57.2,82,75,5.82,US,2020-08-29 21:37
mayumba,-3.43,10.66,72.99,88,100,6.42,GA,2020-08-29 21:37
valdivia,-39.81,-73.25,33.8,100,0,3.36,CL,2020-08-29 21:37
naryan-mar,67.67,53.09,42.78,77,99,11.79,RU,2020-08-29 21:33
puerto escondido,15.85,-97.07,80.29,76,100,2.01,MX,2020-08-29 21:37
ploemeur,47.73,-3.43,51.8,87,0,5.82,FR,2020-08-29 21:37
male,4.17,73.51,84.2,74,75,3.36,MV,2020-08-29 21:37
qaqortoq,60.72,-46.03,60.8,31,82,24.16,GL,2020-08-29 21:37
bireun,5.2,96.7,85.42,63,99,2.66,ID,2020-08-29 21:37
zhigansk,66.77,123.37,53.82,76,100,8.55,RU,2020-08-29 21:37
tuatapere,-46.13,167.68,57.79,60,63,12.01,NZ,2020-08-29 21:37
kruisfontein,-34.0,24.73,45.0,67,47,3.0,ZA,2020-08-29 21:37
carbonia,39.17,8.52,78.01,64,20,5.82,IT,2020-08-29 21:37
boguchany,58.38,97.45,64.62,57,47,4.97,RU,2020-08-29 21:37
launceston,-41.45,147.17,57.2,62,35,26.4,AU,2020-08-29 21:37
aswan,24.09,32.91,80.1,26,0,6.62,EG,2020-08-29 21:37
tecoanapa,16.52,-98.75,78.64,81,100,1.72,MX,2020-08-29 21:37
bud,39.45,-86.18,71.01,73,1,6.71,US,2020-08-29 21:37
victoria,22.29,114.16,89.01,59,35,4.0,HK,2020-08-29 21:37
soe,-9.86,124.28,81.52,34,67,10.54,ID,2020-08-29 21:37
richards bay,-28.78,32.04,64.8,66,99,11.5,ZA,2020-08-29 21:37
mayo,38.89,-76.51,79.0,94,1,5.82,US,2020-08-29 21:37
zyryanka,65.75,150.85,55.04,44,0,3.15,RU,2020-08-29 21:37
korla,41.76,86.15,74.16,27,2,6.29,CN,2020-08-29 21:37
lata,40.16,-8.33,60.01,81,0,3.58,PT,2020-08-29 21:37
syracuse,37.09,15.28,78.01,88,0,5.82,IT,2020-08-29 21:37
goirle,51.52,5.05,54.0,100,16,2.24,NL,2020-08-29 21:37
sovetskiy,61.36,63.58,55.71,94,99,5.91,RU,2020-08-29 21:37
sur,22.57,59.53,86.74,59,37,2.06,OM,2020-08-29 21:37
iberia,29.95,-91.75,80.6,100,1,4.7,US,2020-08-29 21:37
seguin,29.57,-97.96,93.99,41,1,12.75,US,2020-08-29 21:37
mogadishu,2.04,45.34,77.4,83,34,14.34,SO,2020-08-29 21:32
saint george,37.1,-113.58,95.0,17,1,14.99,US,2020-08-29 21:37
comodoro rivadavia,-45.87,-67.5,44.6,48,94,28.86,AR,2020-08-29 21:37
pittsburg,38.03,-121.88,77.0,56,1,12.75,US,2020-08-29 21:34
los llanos de aridane,28.66,-17.92,73.4,69,75,18.34,ES,2020-08-29 21:37
codrington,-38.27,141.97,56.28,75,100,17.31,AU,2020-08-29 21:37
talnakh,69.49,88.4,46.4,100,90,2.24,RU,2020-08-29 21:37
caravelas,-17.71,-39.25,71.46,90,0,3.96,BR,2020-08-29 21:37
waddan,29.16,16.14,75.78,50,0,10.98,LY,2020-08-29 21:37
padang,-0.95,100.35,86.16,60,100,3.58,ID,2020-08-29 21:37
trincomalee,8.57,81.23,84.02,68,100,15.75,LK,2020-08-29 21:37
caibarien,22.52,-79.47,80.6,88,20,4.7,CU,2020-08-29 21:37
barcelos,41.54,-8.62,59.0,82,0,10.29,PT,2020-08-29 21:35
khandbari,27.37,87.2,79.93,66,42,1.72,NP,2020-08-29 21:37
conceicao da barra,-18.59,-39.73,71.4,92,0,4.16,BR,2020-08-29 21:37
amazar,53.86,120.88,59.7,56,100,4.16,RU,2020-08-29 21:37
mazatlan,23.22,-106.42,84.0,83,75,9.17,MX,2020-08-29 21:33
sao filipe,14.9,-24.5,78.76,84,76,8.9,CV,2020-08-29 21:37
ponta do sol,32.67,-17.1,71.6,53,40,14.99,PT,2020-08-29 21:37
fortuna,40.6,-124.16,59.0,76,1,9.17,US,2020-08-29 21:33
araouane,18.9,-3.53,85.64,53,32,13.58,ML,2020-08-29 21:37
praia da vitoria,38.73,-27.07,73.4,94,40,6.93,PT,2020-08-29 21:37
cockburn town,21.46,-71.14,82.26,80,0,15.12,TC,2020-08-29 21:37
broome,42.25,-75.83,66.2,68,75,20.8,US,2020-08-29 21:37
shirokiy,49.76,129.52,53.28,92,100,11.83,RU,2020-08-29 21:37
muros,42.78,-9.06,52.0,91,6,11.23,ES,2020-08-29 21:37
lompoc,34.64,-120.46,60.8,82,1,10.29,US,2020-08-29 21:37
chuy,-33.7,-53.46,50.58,84,85,11.65,UY,2020-08-29 21:37
upernavik,72.79,-56.15,40.05,74,0,3.0,GL,2020-08-29 21:37
kautokeino,69.01,23.04,38.46,89,12,7.31,NO,2020-08-29 21:37
brae,60.4,-1.35,44.6,81,100,6.93,GB,2020-08-29 21:37
aquiraz,-3.9,-38.39,78.8,78,20,19.46,BR,2020-08-29 21:37
sisimiut,66.94,-53.67,45.73,88,100,0.96,GL,2020-08-29 21:37
tahoua,14.89,5.27,78.8,88,20,4.7,NE,2020-08-29 21:37
belmonte,-15.86,-38.88,71.6,88,40,1.12,BR,2020-08-29 21:37
geraldton,-28.77,114.6,62.6,51,0,12.75,AU,2020-08-29 21:37
vardo,70.37,31.11,50.27,79,47,11.9,NO,2020-08-29 21:37
yulara,-25.24,130.99,75.2,22,0,10.29,AU,2020-08-29 21:37
abu dhabi,24.47,54.37,93.2,71,63,6.93,AE,2020-08-29 21:37
la ronge,55.1,-105.28,57.2,93,90,12.75,CA,2020-08-29 21:37
dudinka,69.41,86.18,46.4,100,90,2.24,RU,2020-08-29 21:37
baruun-urt,46.68,113.28,51.89,94,100,14.2,MN,2020-08-29 21:37
lagoa,39.05,-27.98,73.81,95,69,8.86,PT,2020-08-29 21:37
kaseda,31.42,130.32,87.8,66,20,6.93,JP,2020-08-29 21:37
charters towers,-20.1,146.27,74.34,51,76,16.04,AU,2020-08-29 21:37
ulladulla,-35.35,150.47,75.2,25,0,18.34,AU,2020-08-29 21:37
saint-pierre,-21.34,55.48,64.4,77,37,5.82,RE,2020-08-29 21:37
vila franca do campo,37.72,-25.43,73.4,83,75,9.17,PT,2020-08-29 21:37
paamiut,61.99,-49.67,48.31,58,43,9.15,GL,2020-08-29 21:37
belaya gora,68.53,146.42,50.47,52,74,4.63,RU,2020-08-29 21:37
walvis bay,-22.96,14.51,48.99,80,0,12.28,NA,2020-08-29 21:37
vredendal,-31.67,18.5,40.64,70,0,3.91,ZA,2020-08-29 21:37
aklavik,68.22,-135.01,59.0,42,20,8.05,CA,2020-08-29 21:37
panshi,42.94,126.06,74.88,70,95,0.85,CN,2020-08-29 21:37
kidal,18.44,1.41,79.34,68,1,9.53,ML,2020-08-29 21:37
myanaung,18.28,95.32,85.86,74,70,0.78,MM,2020-08-29 21:37
gizycko,54.04,21.76,59.02,87,89,4.85,PL,2020-08-29 21:37
seybaplaya,19.65,-90.67,82.65,83,85,12.24,MX,2020-08-29 21:37
zhezkazgan,47.8,67.71,60.8,48,0,13.42,KZ,2020-08-29 21:37
svetlaya,46.54,138.33,61.84,59,100,13.49,RU,2020-08-29 21:37
coruripe,-10.13,-36.18,73.99,83,10,10.78,BR,2020-08-29 21:37
adrar,20.5,-10.07,90.36,16,19,14.65,MR,2020-08-29 21:37
waingapu,-9.66,120.26,85.71,42,31,18.57,ID,2020-08-29 21:37
kokopo,-4.35,152.26,86.05,67,3,17.78,PG,2020-08-29 21:37
birin,26.89,88.07,78.8,94,75,2.24,NP,2020-08-29 21:37
slave lake,55.28,-114.77,50.0,87,90,24.16,CA,2020-08-29 21:37
san carlos,9.66,-68.58,71.89,90,47,3.42,VE,2020-08-29 21:37
nago,26.59,127.98,89.6,70,40,16.11,JP,2020-08-29 21:37
pisco,-13.7,-76.22,62.01,87,90,5.82,PE,2020-08-29 21:37
sibiti,-3.68,13.35,66.13,94,72,1.92,CG,2020-08-29 21:37
quesnel,53.0,-122.5,57.2,67,75,6.93,CA,2020-08-29 21:37
coahuayana,18.73,-103.68,77.63,89,100,2.04,MX,2020-08-29 21:37
leningradskiy,69.38,178.42,37.2,87,100,11.34,RU,2020-08-29 21:37
reshetylivka,49.56,34.08,62.46,56,0,7.65,UA,2020-08-29 21:37
kristiansund,63.11,7.73,50.0,71,90,17.22,NO,2020-08-29 21:37
hofn,64.25,-15.21,49.89,72,92,2.75,IS,2020-08-29 21:37
ilulissat,69.22,-51.1,39.2,90,42,5.82,GL,2020-08-29 21:37
gazojak,41.19,61.4,76.55,19,0,12.53,TM,2020-08-29 21:37
vanimo,-2.67,141.3,86.72,58,6,7.14,PG,2020-08-29 21:37
linxia,35.6,103.21,51.39,85,100,2.71,CN,2020-08-29 21:37
banda aceh,5.56,95.32,85.15,68,91,6.33,ID,2020-08-29 21:35
ugoofaaru,5.67,73.0,82.92,68,100,6.42,MV,2020-08-29 21:37
luganville,-15.53,167.17,80.6,83,75,11.41,VU,2020-08-29 21:38
chapleau,47.84,-83.4,55.4,100,90,2.24,CA,2020-08-29 21:38
chardara,41.25,67.97,76.98,40,0,6.51,KZ,2020-08-29 21:38
carndonagh,55.25,-7.27,47.3,88,32,2.51,IE,2020-08-29 21:38
khudumelapye,-23.88,24.75,47.48,49,74,13.51,BW,2020-08-29 21:38
sinnamary,5.38,-52.95,79.21,85,90,11.97,GF,2020-08-29 21:38
isangel,-19.55,169.27,75.2,73,75,11.41,VU,2020-08-29 21:38
kiunga,-6.12,141.29,90.32,56,46,3.51,PG,2020-08-29 21:38
kisoro,-1.29,29.68,57.45,94,95,0.76,UG,2020-08-29 21:38
digoin,46.48,3.98,53.6,87,67,8.05,FR,2020-08-29 21:38
port hardy,50.7,-127.42,59.0,77,40,12.75,CA,2020-08-29 21:38
port blair,11.67,92.75,85.1,69,30,4.38,IN,2020-08-29 21:38
tabou,4.42,-7.35,75.11,85,98,12.28,CI,2020-08-29 21:38
puerto palomas,31.77,-107.62,87.13,31,53,15.52,MX,2020-08-29 21:38
goderich,43.75,-81.72,69.01,81,58,24.32,CA,2020-08-29 21:38
puerto suarez,-18.95,-57.8,78.96,19,0,2.21,BO,2020-08-29 21:38
wyndham,37.7,-77.61,81.0,78,1,5.82,US,2020-08-29 21:38
jalu,29.03,21.55,77.83,44,0,5.06,LY,2020-08-29 21:38
cairns,-16.92,145.77,75.2,73,90,13.87,AU,2020-08-29 21:35
marawi,8.0,124.29,84.99,68,100,5.01,PH,2020-08-29 21:38
ribeira grande,38.52,-28.7,74.5,94,51,7.38,PT,2020-08-29 21:38
valenca,-13.37,-39.07,69.22,94,55,1.81,BR,2020-08-29 21:38
snyder,32.72,-100.92,91.4,31,1,4.7,US,2020-08-29 21:38
bolshaya glushitsa,50.24,43.59,59.47,74,41,4.9,RU,2020-08-29 21:38
ukiah,39.15,-123.21,84.2,37,75,6.93,US,2020-08-29 21:34
san cristobal,7.77,-72.22,65.95,88,75,2.44,VE,2020-08-29 21:38
pandan,14.05,124.17,84.94,69,100,13.78,PH,2020-08-29 21:38
molteno,-31.4,26.36,26.83,97,49,2.64,ZA,2020-08-29 21:38
great falls,47.5,-111.3,75.2,25,1,11.41,US,2020-08-29 21:38
thinadhoo,0.53,72.93,83.14,69,73,6.78,MV,2020-08-29 21:38
duluth,46.78,-92.11,64.4,77,1,4.7,US,2020-08-29 21:38
buzmeyin,38.05,58.21,71.6,43,0,6.93,TM,2020-08-29 21:38
henties bay,-22.12,14.28,48.99,80,0,11.72,NA,2020-08-29 21:38
ojojona,13.93,-87.3,62.51,100,98,2.91,HN,2020-08-29 21:38
solnechnyy,50.72,136.63,61.09,51,100,4.21,RU,2020-08-29 21:38
bilma,18.69,12.92,85.42,53,65,17.6,NE,2020-08-29 21:38
temirtau,50.05,72.95,53.6,76,0,4.47,KZ,2020-08-29 21:38
coquimbo,-29.95,-71.34,51.8,87,100,2.24,CL,2020-08-29 21:38
gunnedah,-30.98,150.25,66.2,42,0,5.82,AU,2020-08-29 21:38
altar,30.7,-111.82,91.0,47,8,5.99,MX,2020-08-29 21:38
san juan,-31.54,-68.54,50.77,45,21,11.54,AR,2020-08-29 21:36
kirakira,-10.45,161.92,85.33,75,89,13.38,SB,2020-08-29 21:38
malinovskiy,61.2,62.84,57.74,96,100,2.98,RU,2020-08-29 21:38
voh,-20.97,164.7,75.94,49,1,18.12,NC,2020-08-29 21:38
mount isa,-20.73,139.5,82.4,34,12,11.41,AU,2020-08-29 21:38
jinchang,38.5,102.17,62.73,52,97,6.04,CN,2020-08-29 21:38
gondanglegi,-7.75,112.01,88.68,42,84,11.83,ID,2020-08-29 21:38
fenyi,27.81,114.67,89.01,56,0,3.91,CN,2020-08-29 21:38
troitsko-pechorsk,62.71,56.2,52.27,96,98,2.82,RU,2020-08-29 21:38
casimiro castillo,19.6,-104.43,74.57,87,100,1.88,MX,2020-08-29 21:38
ponta delgada,37.73,-25.67,73.4,83,75,9.17,PT,2020-08-29 21:38
manokwari,-0.87,134.08,83.64,71,75,11.88,ID,2020-08-29 21:38
kungurtug,50.6,97.52,47.97,84,100,2.89,RU,2020-08-29 21:38
college,64.86,-147.8,66.2,48,75,5.82,US,2020-08-29 21:38
natitingou,10.3,1.38,69.87,95,99,3.04,BJ,2020-08-29 21:38
latung,5.5,120.88,83.62,72,100,4.52,PH,2020-08-29 21:38
san quintin,30.48,-115.95,69.93,74,0,10.27,MX,2020-08-29 21:38
namie,37.48,141.0,77.0,89,75,6.13,JP,2020-08-29 21:38
grand gaube,-20.01,57.66,70.0,71,1,8.01,MU,2020-08-29 21:38
yen bai,21.7,104.87,87.33,69,83,2.39,VN,2020-08-29 21:38
puerto madryn,-42.77,-65.04,45.57,55,0,17.67,AR,2020-08-29 21:38
tiarei,-17.53,-149.33,84.2,62,40,10.29,PF,2020-08-29 21:38
gaggenau,48.8,8.33,62.01,93,100,1.12,DE,2020-08-29 21:38
esperance,-33.87,121.9,55.4,71,90,6.93,AU,2020-08-29 21:38
alofi,-19.06,-169.92,80.6,69,12,17.22,NU,2020-08-29 21:38
segovia,41.17,-4.0,48.0,21,18,5.26,ES,2020-08-29 21:38
vila velha,-20.33,-40.29,73.4,83,20,5.82,BR,2020-08-29 21:34
sept-iles,50.2,-66.38,54.0,76,75,8.05,CA,2020-08-29 21:34
hirschaid,49.82,10.99,61.0,73,98,1.66,DE,2020-08-29 21:38
merauke,-8.47,140.33,85.19,68,100,11.99,ID,2020-08-29 21:38
silver city,32.77,-108.28,87.8,20,1,10.29,US,2020-08-29 21:38
takoradi,4.88,-1.76,73.27,91,100,7.76,GH,2020-08-29 21:38
aasiaat,68.71,-52.87,37.6,88,58,7.16,GL,2020-08-29 21:38
tomesti,47.12,27.68,68.0,68,0,10.29,RO,2020-08-29 21:38
zaporizhzhya,47.82,35.18,62.01,62,43,2.24,UA,2020-08-29 21:38
akyab,20.15,92.9,83.68,79,100,4.99,MM,2020-08-29 21:38
havoysund,71.0,24.66,42.8,93,12,10.29,NO,2020-08-29 21:38
yerbogachen,61.28,108.01,64.02,56,7,8.08,RU,2020-08-29 21:35
vaitape,-16.52,-151.75,78.89,74,3,23.87,PF,2020-08-29 21:38
horgos,46.16,19.97,68.0,88,0,7.67,RS,2020-08-29 21:38
portland,45.52,-122.68,69.01,32,0,8.86,US,2020-08-29 21:38
berlevag,70.86,29.09,48.27,77,89,11.05,NO,2020-08-29 21:38
ucluelet,48.93,-125.55,64.4,59,20,18.34,CA,2020-08-29 21:35
kultuk,51.72,103.7,57.74,84,100,3.6,RU,2020-08-29 21:38
krasnoselkup,65.7,82.47,53.24,89,100,8.81,RU,2020-08-29 21:38
barmer,25.75,71.38,87.98,61,77,7.99,IN,2020-08-29 21:38
kondopoga,62.21,34.26,41.0,93,85,2.24,RU,2020-08-29 21:38
dzilam gonzalez,21.28,-88.93,84.47,70,98,8.93,MX,2020-08-29 21:38
mackenzie,55.3,-123.17,55.4,58,1,3.4,CA,2020-08-29 21:38
poum,-20.23,164.02,70.32,73,33,16.15,NC,2020-08-29 21:38
pierre,44.37,-100.35,69.8,56,1,14.99,US,2020-08-29 21:38
puerto ayacucho,5.66,-67.62,75.81,88,93,3.51,VE,2020-08-29 21:38
pinega,64.7,43.39,50.54,97,100,6.22,RU,2020-08-29 21:38
anadyr,64.75,177.48,53.6,58,75,6.71,RU,2020-08-29 21:38
nome,64.5,-165.41,59.0,77,90,10.29,US,2020-08-29 21:38
gua,22.2,85.38,82.71,72,20,4.76,IN,2020-08-29 21:38
touros,-5.2,-35.46,77.0,83,40,8.05,BR,2020-08-29 21:38
funadhoo,6.15,73.27,83.05,69,88,7.49,MV,2020-08-29 21:38
praya,14.92,-23.51,78.8,94,20,3.36,CV,2020-08-29 21:38
half moon bay,37.46,-122.43,68.0,68,20,11.41,US,2020-08-29 21:38
nishihara,26.18,127.76,89.6,79,75,10.29,JP,2020-08-29 21:38
antalaha,-14.9,50.28,69.03,87,56,8.5,MG,2020-08-29 21:38
uvinza,-5.1,30.39,64.38,63,0,4.45,TZ,2020-08-29 21:38
jiwani,25.05,61.74,81.07,82,19,6.69,PK,2020-08-29 21:38
asau,46.43,26.4,63.0,84,0,4.03,RO,2020-08-29 21:38
te anau,-45.42,167.72,51.89,71,100,7.18,NZ,2020-08-29 21:38
grindavik,63.84,-22.43,51.8,100,90,18.34,IS,2020-08-29 21:38
honiara,-9.43,159.95,93.2,67,20,16.11,SB,2020-08-29 21:38
luderitz,-26.65,15.16,49.84,58,0,15.26,NA,2020-08-29 21:38
saint-joseph,-21.37,55.62,64.4,77,50,5.82,RE,2020-08-29 21:38
pontalina,-17.52,-49.45,66.9,42,0,5.5,BR,2020-08-29 21:38
keffi,8.85,7.87,73.4,94,20,3.36,NG,2020-08-29 21:38
cao bang,22.67,106.25,88.56,55,3,3.8,VN,2020-08-29 21:35
ust-ishim,57.69,71.17,62.6,83,74,4.83,RU,2020-08-29 21:38
eraniel,8.2,77.3,84.2,79,20,6.93,IN,2020-08-29 21:38
hirara,24.8,125.28,87.8,74,75,14.99,JP,2020-08-29 21:38
naze,28.37,129.48,87.8,83,75,11.41,JP,2020-08-29 21:38
panaba,21.28,-88.27,80.87,81,96,11.12,MX,2020-08-29 21:38
pangnirtung,66.15,-65.71,42.8,87,5,5.82,CA,2020-08-29 21:38
paita,-5.09,-81.11,62.01,86,40,12.73,PE,2020-08-29 21:38
lososina,49.0,140.31,62.17,62,99,10.33,RU,2020-08-29 21:38
quatre cocos,-20.21,57.76,70.0,73,40,14.99,MU,2020-08-29 21:35
santa,17.49,120.43,85.39,72,87,6.02,PH,2020-08-29 21:38
bull savanna,17.89,-77.59,78.24,91,45,3.11,JM,2020-08-29 21:38
messina,38.19,15.55,78.01,100,20,10.29,IT,2020-08-29 21:38
ziarat,30.38,67.73,63.64,33,0,0.81,PK,2020-08-29 21:38
camacha,33.08,-16.33,71.6,60,40,9.17,PT,2020-08-29 21:38
novoagansk,61.94,76.66,61.21,78,100,1.54,RU,2020-08-29 21:38
sabzevar,36.21,57.68,69.22,33,0,9.13,IR,2020-08-29 21:38
sanming,26.25,117.62,90.64,59,5,3.62,CN,2020-08-29 21:38
diffa,13.32,12.61,76.77,69,100,4.27,NE,2020-08-29 21:38
koslan,63.46,48.9,50.79,88,100,4.59,RU,2020-08-29 21:38
akita,39.72,140.12,84.2,79,75,10.29,JP,2020-08-29 21:38
karatuzskoye,53.61,92.87,59.41,84,32,2.28,RU,2020-08-29 21:38
agnibilekrou,7.13,-3.2,67.62,99,64,2.77,CI,2020-08-29 21:38
kununurra,-15.77,128.73,87.8,26,24,11.41,AU,2020-08-29 21:38
kankon,15.02,74.02,77.0,100,75,4.7,IN,2020-08-29 21:38
rock sound,24.9,-76.2,83.89,67,12,4.61,BS,2020-08-29 21:38
hirson,49.92,4.08,55.0,100,4,3.36,FR,2020-08-29 21:38
valparaiso,-33.04,-71.63,48.2,87,0,3.36,CL,2020-08-29 21:38
tanabi,-20.63,-49.65,73.4,31,0,5.26,BR,2020-08-29 21:38
shingu,33.73,135.98,86.0,79,20,5.82,JP,2020-08-29 21:34
lamu,-2.27,40.9,75.43,84,67,11.07,KE,2020-08-29 21:38
bathsheba,13.22,-59.52,82.4,78,40,20.8,BB,2020-08-29 21:38
skibbereen,51.55,-9.27,48.2,87,75,8.05,IE,2020-08-29 21:38
nobres,-14.72,-56.33,77.58,20,0,4.05,BR,2020-08-29 21:38
nara,34.69,135.8,100.0,59,40,3.36,JP,2020-08-29 21:38
vila,42.03,-8.16,59.0,87,3,6.93,PT,2020-08-29 21:38
la tuque,47.43,-72.78,50.79,96,100,6.93,CA,2020-08-29 21:38
tanda,26.55,82.65,84.63,69,2,7.29,IN,2020-08-29 21:38
ismailia,30.6,32.27,73.15,92,0,6.13,EG,2020-08-29 21:38
kavaratti,10.57,72.64,82.13,78,100,14.47,IN,2020-08-29 21:38
labuhan,-6.88,112.21,85.35,52,100,5.5,ID,2020-08-29 21:38
wamba,8.93,8.6,71.56,92,100,4.09,NG,2020-08-29 21:38
rawlins,41.79,-107.24,62.6,48,1,9.17,US,2020-08-29 21:38
conchagua,13.31,-87.86,75.7,93,100,2.59,SV,2020-08-29 21:38
monrovia,6.3,-10.8,75.87,86,88,12.37,LR,2020-08-29 21:38
narrabri,-30.32,149.78,71.6,35,0,14.99,AU,2020-08-29 21:38
hamilton,39.18,-84.53,75.99,60,90,9.17,US,2020-08-29 21:38
mtsamboro,-12.7,45.07,69.8,83,9,3.98,YT,2020-08-29 21:38
abha,18.22,42.51,68.0,45,20,7.76,SA,2020-08-29 21:38
cidreira,-30.18,-50.21,65.53,93,99,8.08,BR,2020-08-29 21:38
sandnessjoen,66.02,12.63,42.8,93,75,1.12,NO,2020-08-29 21:38
fairbanks,64.84,-147.72,66.2,45,75,4.7,US,2020-08-29 21:35
cuorgne,45.39,7.65,64.99,96,99,1.01,IT,2020-08-29 21:38
taoudenni,22.68,-3.98,91.99,46,17,12.3,ML,2020-08-29 21:38
wanaka,-44.7,169.15,54.21,59,40,10.22,NZ,2020-08-29 21:38
jasidih,24.52,86.65,85.53,63,3,6.04,IN,2020-08-29 21:38
lekoni,-1.58,14.26,71.87,84,100,8.16,GA,2020-08-29 21:38
tateyama,34.98,139.87,89.6,62,75,4.7,JP,2020-08-29 21:38
sagua la grande,22.81,-80.08,80.6,88,20,4.7,CU,2020-08-29 21:38
camana,-16.62,-72.71,59.81,82,86,10.27,PE,2020-08-29 21:38
bethel,41.37,-73.41,71.01,94,1,1.01,US,2020-08-29 21:38
sakakah,29.97,40.21,82.4,15,0,4.7,SA,2020-08-29 21:38
burayevo,55.84,55.41,62.74,85,93,8.3,RU,2020-08-29 21:38
bairiki,1.33,172.98,89.6,66,20,11.41,KI,2020-08-29 21:38
mana,5.66,-53.78,78.04,88,100,8.37,GF,2020-08-29 21:38
castrillon,43.4,-6.79,57.2,87,90,5.82,ES,2020-08-29 21:38
zhaotong,27.32,103.72,70.14,73,97,4.92,CN,2020-08-29 21:38
kitakata,37.65,139.87,88.0,74,75,3.36,JP,2020-08-29 21:38
yambio,4.57,28.4,65.12,98,12,4.14,SS,2020-08-29 21:38
rio gallegos,-51.62,-69.22,39.2,83,85,25.28,AR,2020-08-29 21:38
victor harbor,-35.57,138.62,55.99,88,55,1.99,AU,2020-08-29 21:38
bengkulu,-3.8,102.27,86.79,56,78,4.9,ID,2020-08-29 21:38
mpongwe,-13.51,28.16,59.47,43,52,4.18,ZM,2020-08-29 21:38
plettenberg bay,-34.05,23.37,45.63,86,100,8.19,ZA,2020-08-29 21:38
yumen,40.28,97.2,68.09,30,0,1.68,CN,2020-08-29 21:38
salinopolis,-0.61,-47.36,79.61,83,57,12.88,BR,2020-08-29 21:38
vladyslavivka,45.17,35.37,68.04,62,0,6.33,UA,2020-08-29 21:38
porto novo,6.5,2.6,77.0,88,20,12.75,BJ,2020-08-29 21:38
sorong,-0.88,131.25,81.86,74,80,8.48,ID,2020-08-29 21:38
bushenyi,-0.59,30.21,59.23,97,100,2.62,UG,2020-08-29 21:38
suluq,31.67,20.25,73.99,51,0,12.57,LY,2020-08-29 21:38
tingo maria,-9.29,-76.01,71.2,64,0,2.17,PE,2020-08-29 21:38
porosozero,62.72,32.73,43.92,94,96,1.81,RU,2020-08-29 21:38
torbay,47.67,-52.73,57.0,82,75,19.46,CA,2020-08-29 21:35
kolokani,13.57,-8.03,71.74,96,99,8.88,ML,2020-08-29 21:38
skole,49.04,23.51,61.0,78,0,4.0,UA,2020-08-29 21:38
port shepstone,-30.74,30.45,57.45,59,100,18.23,ZA,2020-08-29 21:38
bogorodskoye,56.55,37.88,55.15,83,100,8.5,RU,2020-08-29 21:37
cauquenes,-35.97,-72.32,38.19,77,0,9.6,CL,2020-08-29 21:38
nauta,-4.51,-73.58,76.28,76,11,3.04,PE,2020-08-29 21:38
shu,43.6,73.76,70.0,84,0,5.01,KZ,2020-08-29 21:38
taber,49.82,-112.15,57.0,47,75,5.82,CA,2020-08-29 21:38
imbituba,-28.24,-48.67,66.2,93,20,11.41,BR,2020-08-29 21:38
zheleznodorozhnyy,55.75,38.0,59.0,100,40,4.47,RU,2020-08-29 21:38
arona,28.1,-16.68,75.2,60,75,13.87,ES,2020-08-29 21:38
srednekolymsk,67.45,153.68,50.07,54,78,4.27,RU,2020-08-29 21:38
kushima,31.46,131.23,87.8,74,20,5.82,JP,2020-08-29 21:38
sadiqabad,28.31,70.13,95.16,46,0,5.57,PK,2020-08-29 21:38
daru,-9.08,143.21,79.48,83,100,17.83,PG,2020-08-29 21:38
svetlogorsk,52.63,29.73,60.03,82,9,7.14,BY,2020-08-29 21:38
axim,4.87,-2.24,74.37,86,100,9.31,GH,2020-08-29 21:38
castelldefels,41.28,1.97,64.99,82,20,9.17,ES,2020-08-29 21:38
chapais,49.78,-74.85,51.8,81,90,6.93,CA,2020-08-29 21:38
abu kamal,34.45,40.92,79.5,24,0,7.29,SY,2020-08-29 21:38
bartica,6.4,-58.62,77.0,94,75,4.7,GY,2020-08-29 21:39
itarema,-2.92,-39.92,78.48,78,73,18.97,BR,2020-08-29 21:39
arman,59.7,150.17,57.56,45,24,6.04,RU,2020-08-29 21:39
katherine,-14.47,132.27,87.8,20,83,14.99,AU,2020-08-29 21:35
komsomolskiy,40.43,71.72,71.6,35,0,2.24,UZ,2020-08-29 21:39
fakel,57.63,53.03,57.42,95,58,6.06,RU,2020-08-29 21:39
hermiston,45.84,-119.29,80.6,28,1,14.99,US,2020-08-29 21:35
ondjiva,-17.07,15.73,54.07,35,4,7.07,AO,2020-08-29 21:39
furano,43.28,142.47,55.4,76,75,3.36,JP,2020-08-29 21:39
shimoda,34.67,138.95,84.99,79,75,1.12,JP,2020-08-29 21:39
bonthe,7.53,-12.51,75.27,89,100,10.2,SL,2020-08-29 21:39
dubbo,-32.25,148.62,68.0,56,0,17.22,AU,2020-08-29 21:39
marsh harbour,26.54,-77.06,84.15,71,63,7.67,BS,2020-08-29 21:39
namibe,-15.2,12.15,59.11,77,0,1.25,AO,2020-08-29 21:39
lesnyye polyany,55.97,37.87,59.0,77,100,6.71,RU,2020-08-29 21:39
khargone,21.82,75.6,75.79,91,100,10.02,IN,2020-08-29 21:39
luanda,-8.84,13.23,68.0,88,75,6.93,AO,2020-08-29 21:39
benguela,-12.58,13.41,66.54,85,57,1.7,AO,2020-08-29 21:39
abilene,32.45,-99.73,95.0,32,75,4.7,US,2020-08-29 21:39
riedlingen,48.15,9.48,55.4,93,100,1.12,DE,2020-08-29 21:39
ishigaki,24.34,124.16,87.8,84,40,14.99,JP,2020-08-29 21:39
nizhnevartovsk,60.93,76.55,55.4,93,90,2.24,RU,2020-08-29 21:39
nizamabad,18.67,78.12,77.76,84,27,10.31,IN,2020-08-29 21:39
lerwick,60.15,-1.15,44.6,81,100,6.93,GB,2020-08-29 21:39
